{"type":"FeatureCollection","features":
    [{"type":"Feature","properties":{"NombreEstacion":"AV. Cali","NumeroEstacion":4003,"Localidad1":"Engativá","Localidad2":"-","UbicacionEstacion":"Carrera 86","Cantidad":267},"geometry":{"type":"Point","coordinates":[-74.10025325,4.70249985]}}
    ,{"type":"Feature","properties":{"NombreEstacion":"Venecia","NumeroEstacion":7004,"Localidad1":"Kennedy","Localidad2":"Tunjuelito","UbicacionEstacion":"AutoSur-Av 54","Cantidad":878},"geometry":{"type":"Point","coordinates":[-74.14159012,4.59571313]}}]}
    ,{"type":"Feature","properties":{"NombreEstacion":"Carrera 53","NumeroEstacion":4105,"Localidad1":"Barrios Unidos","Localidad2":"-","UbicacionEstacion":"Carrera 53","Cantidad":1434},"geometry":{"type":"Point","coordinates":[-74.07736461,4.68193956]}},{"type":"Feature","properties":{"NombreEstacion":"Simón Bolívar","NumeroEstacion":7104,"Localidad1":"Barrios Unidos","Localidad2":"-","UbicacionEstacion":"Kr 30 CL 63","Cantidad":635},"geometry":{"type":"Point","coordinates":[-74.07775374,4.65706335]}},{"type":"Feature","properties":{"NombreEstacion":"Portal de la 80","NumeroEstacion":4000,"Localidad1":"Engativá","Localidad2":"-","UbicacionEstacion":"Carrera 96","Cantidad":1123},"geometry":{"type":"Point","coordinates":[-74.11052456,4.70952296]}},{"type":"Feature","properties":{"NombreEstacion":"Marly","NumeroEstacion":9118,"Localidad1":"Chapinero","Localidad2":"Teusaquillo","UbicacionEstacion":"Calle 51 - Calle 49","Cantidad":1785},"geometry":{"type":"Point","coordinates":[-74.06637045,4.63951515]}},{"type":"Feature","properties":{"NombreEstacion":"Calle 63","NumeroEstacion":9120,"Localidad1":"Chapinero","Localidad2":"Teusaquillo","UbicacionEstacion":"Calle 63 - Calle 60","Cantidad":1911},"geometry":{"type":"Point","coordinates":[-74.06458735,4.64874321]}},{"type":"Feature","properties":{"NombreEstacion":"SENA","NumeroEstacion":7009,"Localidad1":"Antonio Nariño","Localidad2":"Puente Aranda","UbicacionEstacion":"AutoSur-Cl 17 S","Cantidad":624},"geometry":{"type":"Point","coordinates":[-74.11020509,4.597543]}},{"type":"Feature","properties":{"NombreEstacion":"Portal del Sur","NumeroEstacion":7000,"Localidad1":"Bosa","Localidad2":"-","UbicacionEstacion":"AutoSur-Kr 82","Cantidad":181},"geometry":{"type":"Point","coordinates":[-74.17003806,4.59581727]}},{"type":"Feature","properties":{"NombreEstacion":"Ricaurte - NQS","NumeroEstacion":7111,"Localidad1":"Los Mártires","Localidad2":"Puente Aranda","UbicacionEstacion":"Kr 30 Cl 10","Cantidad":1642},"geometry":{"type":"Point","coordinates":[-74.09211642,4.61367605]}},{"type":"Feature","properties":{"NombreEstacion":"Alcalá","NumeroEstacion":2200,"Localidad1":"Usaquén ","Localidad2":"Suba","UbicacionEstacion":"Calle 137","Cantidad":1930},"geometry":{"type":"Point","coordinates":[-74.05144057,4.72076577]}},{"type":"Feature","properties":{"NombreEstacion":"AV. 68","NumeroEstacion":4104,"Localidad1":"Engativá","Localidad2":"-","UbicacionEstacion":"Carrera 60","Cantidad":203},"geometry":{"type":"Point","coordinates":[-74.08035668,4.68580261]}},{"type":"Feature","properties":{"NombreEstacion":"Calle 187","NumeroEstacion":2001,"Localidad1":"Usaquén","Localidad2":"Suba","UbicacionEstacion":"Calle 184","Cantidad":643},"geometry":{"type":"Point","coordinates":[-74.04472315,4.76178408]}},{"type":"Feature","properties":{"NombreEstacion":"Salitre - El Greco","NumeroEstacion":6102,"Localidad1":"Teusaquillo","Localidad2":"-","UbicacionEstacion":"Carrera 66","Cantidad":952},"geometry":{"type":"Point","coordinates":[-74.10185856,4.65130342]}},{"type":"Feature","properties":{"NombreEstacion":"Héroes","NumeroEstacion":2304,"Localidad1":"Chapinero","Localidad2":"Barrios Unidos","UbicacionEstacion":"Calle 80","Cantidad":2263},"geometry":{"type":"Point","coordinates":[-74.06050012,4.66689435]}},{"type":"Feature","properties":{"NombreEstacion":"Las Aguas","NumeroEstacion":14005,"Localidad1":"La Candelaria","Localidad2":"Santa Fé","UbicacionEstacion":"carrera 4","Cantidad":351},"geometry":{"type":"Point","coordinates":[-74.06817769,4.60266984]}},{"type":"Feature","properties":{"NombreEstacion":"Museo del Oro","NumeroEstacion":14004,"Localidad1":"La Candelaria","Localidad2":"Santa Fé","UbicacionEstacion":"carrera 2","Cantidad":1365},"geometry":{"type":"Point","coordinates":[-74.07295785,4.60118385]}},{"type":"Feature","properties":{"NombreEstacion":"Polo","NumeroEstacion":4108,"Localidad1":"Barrios Unidos","Localidad2":"-","UbicacionEstacion":"Transversal 27","Cantidad":233},"geometry":{"type":"Point","coordinates":[-74.06583827,4.67224842]}},{"type":"Feature","properties":{"NombreEstacion":"Calle 34","NumeroEstacion":9115,"Localidad1":"Santa Fé","Localidad2":"Teusaquillo","UbicacionEstacion":"Avenida Calle 34 - Calle 3","Cantidad":867},"geometry":{"type":"Point","coordinates":[-74.06958764,4.62221301]}},{"type":"Feature","properties":{"NombreEstacion":"Alquería","NumeroEstacion":7005,"Localidad1":"Tunjuelito","Localidad2":"Puente Aranda","UbicacionEstacion":"AutoSur-Kr48","Cantidad":517},"geometry":{"type":"Point","coordinates":[-74.13441089,4.59437209]}},{"type":"Feature","properties":{"NombreEstacion":"Nariño","NumeroEstacion":9106,"Localidad1":"Antonio Nariño","Localidad2":"-","UbicacionEstacion":"Calle 8 Sur - Calle 11 Sur","Cantidad":2130},"geometry":{"type":"Point","coordinates":[-74.0938266,4.58629883]}},{"type":"Feature","properties":{"NombreEstacion":"Puentelargo","NumeroEstacion":3010,"Localidad1":"Suba","Localidad2":"-","UbicacionEstacion":"Av Suba Tv 48","Cantidad":87},"geometry":{"type":"Point","coordinates":[-74.06707121,4.69319361]}},{"type":"Feature","properties":{"NombreEstacion":"Calle 100","NumeroEstacion":2300,"Localidad1":"Barrios Unidos","Localidad2":"Chapinero","UbicacionEstacion":"Calle 97","Cantidad":1380},"geometry":{"type":"Point","coordinates":[-74.05750794,4.68434548]}},{"type":"Feature","properties":{"NombreEstacion":"Biblioteca Tintal","NumeroEstacion":5002,"Localidad1":"Kennedy","Localidad2":"-","UbicacionEstacion":"av.Cali - Calle 26 sur","Cantidad":1467},"geometry":{"type":"Point","coordinates":[-74.15698977,4.63996012]}},{"type":"Feature","properties":{"NombreEstacion":"Suba - TV. 91","NumeroEstacion":3002,"Localidad1":"Suba","Localidad2":"-","UbicacionEstacion":"Av Suba Kr 90","Cantidad":2007},"geometry":{"type":"Point","coordinates":[-74.08603261,4.73820209]}},{"type":"Feature","properties":{"NombreEstacion":"Calle 40 S","NumeroEstacion":9100,"Localidad1":"Rafael Uribe Uribe","Localidad2":"-","UbicacionEstacion":"Calle 38 Sur - Calle 40 Su","Cantidad":2384},"geometry":{"type":"Point","coordinates":[-74.11952549,4.57596786]}},{"type":"Feature","properties":{"NombreEstacion":"Madelena","NumeroEstacion":7002,"Localidad1":"Bosa ","Localidad2":"Ciudad Bolivar","UbicacionEstacion":"AutoSur-Kr67","Cantidad":380},"geometry":{"type":"Point","coordinates":[-74.15725663,4.59624121]}},{"type":"Feature","properties":{"NombreEstacion":"Flores","NumeroEstacion":9121,"Localidad1":"Chapinero","Localidad2":"Barrios Unidos","UbicacionEstacion":"Calle 69  - Calle 67","Cantidad":2339},"geometry":{"type":"Point","coordinates":[-74.06308827,4.65471326]}},{"type":"Feature","properties":{"NombreEstacion":"Calle 57","NumeroEstacion":9119,"Localidad1":"Chapinero","Localidad2":"Teusaquillo","UbicacionEstacion":"Calle 57 - Calle 54","Cantidad":792},"geometry":{"type":"Point","coordinates":[-74.0655874,4.64379318]}},{"type":"Feature","properties":{"NombreEstacion":"Modelia","NumeroEstacion":6001,"Localidad1":"Engativá","Localidad2":"Fontibón","UbicacionEstacion":"Carrera 84","Cantidad":2410},"geometry":{"type":"Point","coordinates":[-74.11675293,4.67432269]}},{"type":"Feature","properties":{"NombreEstacion":"Calle 26","NumeroEstacion":9114,"Localidad1":"Santa Fé","Localidad2":"Teusaquillo","UbicacionEstacion":"Avenida Calle 28 - Calle 2","Cantidad":513},"geometry":{"type":"Point","coordinates":[-74.07241326,4.61617136]}},{"type":"Feature","properties":{"NombreEstacion":"Perdomo","NumeroEstacion":7001,"Localidad1":"Bosa","Localidad2":"Ciudad Bolivar","UbicacionEstacion":"AutoSur-Kr78C","Cantidad":39},"geometry":{"type":"Point","coordinates":[-74.16341884,4.59568824]}},{"type":"Feature","properties":{"NombreEstacion":"AV. Chile","NumeroEstacion":7103,"Localidad1":"Barrios Unidos","Localidad2":"-","UbicacionEstacion":"Kr 30 Cl 72","Cantidad":940},"geometry":{"type":"Point","coordinates":[-74.07398957,4.66689641]}},{"type":"Feature","properties":{"NombreEstacion":"Gobernación","NumeroEstacion":6104,"Localidad1":"Teusaquillo","Localidad2":"-","UbicacionEstacion":"Carrera 54","Cantidad":1518},"geometry":{"type":"Point","coordinates":[-74.09621841,4.64263932]}},{"type":"Feature","properties":{"NombreEstacion":"Restrepo","NumeroEstacion":9104,"Localidad1":"Antonio Nariño","Localidad2":"-","UbicacionEstacion":"Calle 19 Sur - Av. 1 de M","Cantidad":1923},"geometry":{"type":"Point","coordinates":[-74.10152688,4.58176282]}},{"type":"Feature","properties":{"NombreEstacion":"El Tiempo - Maloka","NumeroEstacion":6101,"Localidad1":"Engativá","Localidad2":"Fontibón","UbicacionEstacion":"carrera 68d","Cantidad":1439},"geometry":{"type":"Point","coordinates":[-74.10508264,4.65590347]}},{"type":"Feature","properties":{"NombreEstacion":"Hortúa","NumeroEstacion":9107,"Localidad1":"Antonio Nariño","Localidad2":"-","UbicacionEstacion":"Calle 1 Sur - Calle 3 Sur","Cantidad":1572},"geometry":{"type":"Point","coordinates":[-74.09021346,4.59079985]}},{"type":"Feature","properties":{"NombreEstacion":"CDS - Carrera 32","NumeroEstacion":12002,"Localidad1":"Puente Aranda","Localidad2":"-","UbicacionEstacion":"Av. Americas -Carrera 32","Cantidad":2287},"geometry":{"type":"Point","coordinates":[-74.0951455,4.6173591]}},{"type":"Feature","properties":{"NombreEstacion":"AV. Jiménez - CL 13","NumeroEstacion":9110,"Localidad1":"Los Mártires","Localidad2":"La Candelaria","UbicacionEstacion":"Calle 13 - caracas","Cantidad":2337},"geometry":{"type":"Point","coordinates":[-74.07913104,4.6031429]}},{"type":"Feature","properties":{"NombreEstacion":"Patio Bonito","NumeroEstacion":5001,"Localidad1":"Kennedy","Localidad2":"-","UbicacionEstacion":"av.Cali - Calle 40 sur","Cantidad":939},"geometry":{"type":"Point","coordinates":[-74.16271887,4.6348279]}},{"type":"Feature","properties":{"NombreEstacion":"Suba - Calle 116","NumeroEstacion":3009,"Localidad1":"Suba","Localidad2":"-","UbicacionEstacion":"Av Suba Cll 114","Cantidad":914},"geometry":{"type":"Point","coordinates":[-74.06975627,4.69918067]}},{"type":"Feature","properties":{"NombreEstacion":"Normandía","NumeroEstacion":6002,"Localidad1":"Engativá","Localidad2":"Fontibón","UbicacionEstacion":"carrera 73a","Cantidad":813},"geometry":{"type":"Point","coordinates":[-74.11231782,4.6673226]}},{"type":"Feature","properties":{"NombreEstacion":"Recinto Ferial","NumeroEstacion":6106,"Localidad1":"Teusaquillo","Localidad2":"-","UbicacionEstacion":"Carrera 43","Cantidad":1256},"geometry":{"type":"Point","coordinates":[-74.08920322,4.63410021]}},{"type":"Feature","properties":{"NombreEstacion":"NQS - Calle 30 S","NumeroEstacion":7008,"Localidad1":"Antonio Nariño","Localidad2":"Puente Aranda","UbicacionEstacion":"AutoSur-Dg 26 Sur","Cantidad":964},"geometry":{"type":"Point","coordinates":[-74.11581228,4.59529801]}},{"type":"Feature","properties":{"NombreEstacion":"Suba - AV. Boyacá","NumeroEstacion":3005,"Localidad1":"Suba","Localidad2":"-","UbicacionEstacion":"Av Suba Av Boyaca","Cantidad":2201},"geometry":{"type":"Point","coordinates":[-74.07452333,4.71988287]}},{"type":"Feature","properties":{"NombreEstacion":"Escuela Militar","NumeroEstacion":4107,"Localidad1":"Barrios Unidos","Localidad2":"-","UbicacionEstacion":"Carrera 40","Cantidad":444},"geometry":{"type":"Point","coordinates":[-74.06923537,4.67527646]}},{"type":"Feature","properties":{"NombreEstacion":"Zona Industrial","NumeroEstacion":12007,"Localidad1":"Puente Aranda","Localidad2":"-","UbicacionEstacion":"calle 13 carrera 38","Cantidad":890},"geometry":{"type":"Point","coordinates":[-74.09846359,4.62024214]}},{"type":"Feature","properties":{"NombreEstacion":"Santa Lucía","NumeroEstacion":9004,"Localidad1":"Rafael Uribe Uribe","Localidad2":"Tunjuelito","UbicacionEstacion":"Calle 46A Sur - Diagonal 4","Cantidad":883},"geometry":{"type":"Point","coordinates":[-74.12473269,4.57071884]}},{"type":"Feature","properties":{"NombreEstacion":"Toberín","NumeroEstacion":2101,"Localidad1":"Usaquén","Localidad2":"Suba","UbicacionEstacion":"Calle 165","Cantidad":619},"geometry":{"type":"Point","coordinates":[-74.04703429,4.74733097]}},{"type":"Feature","properties":{"NombreEstacion":"San Martín","NumeroEstacion":3014,"Localidad1":"Barrios Unidos","Localidad2":"-","UbicacionEstacion":"Av Suba Cl 81","Cantidad":1695},"geometry":{"type":"Point","coordinates":[-74.06698829,4.67670446]}},{"type":"Feature","properties":{"NombreEstacion":"La Castellana","NumeroEstacion":7101,"Localidad1":"Barrios Unidos","Localidad2":"-","UbicacionEstacion":"KR 30 Kr 24","Cantidad":510},"geometry":{"type":"Point","coordinates":[-74.06210113,4.67692744]}},{"type":"Feature","properties":{"NombreEstacion":"Comuneros","NumeroEstacion":7112,"Localidad1":"Los Mártires","Localidad2":"Puente Aranda","UbicacionEstacion":"KR 30 -Cl 6A","Cantidad":861},"geometry":{"type":"Point","coordinates":[-74.09855967,4.60570801]}},{"type":"Feature","properties":{"NombreEstacion":"Calle 161","NumeroEstacion":2102,"Localidad1":"Usaquén","Localidad2":"Suba","UbicacionEstacion":"Calle 160","Cantidad":668},"geometry":{"type":"Point","coordinates":[-74.04796835,4.74154193]}},{"type":"Feature","properties":{"NombreEstacion":"Campín","NumeroEstacion":7106,"Localidad1":"Teusaquillo","Localidad2":"-","UbicacionEstacion":"Kr 30 Cl 53","Cantidad":1196},"geometry":{"type":"Point","coordinates":[-74.07879784,4.64345924]}},{"type":"Feature","properties":{"NombreEstacion":"CAN","NumeroEstacion":6103,"Localidad1":"Teusaquillo","Localidad2":"-","UbicacionEstacion":"Carrera 60","Cantidad":1290},"geometry":{"type":"Point","coordinates":[-74.09893248,4.64671936]}},{"type":"Feature","properties":{"NombreEstacion":"Portal de Suba","NumeroEstacion":3000,"Localidad1":"Suba","Localidad2":"-","UbicacionEstacion":"Av Suba Av C. Cali","Cantidad":666},"geometry":{"type":"Point","coordinates":[-74.09625691,4.74653621]}},{"type":"Feature","properties":{"NombreEstacion":"Fucha","NumeroEstacion":9105,"Localidad1":"Antonio Nariño","Localidad2":"-","UbicacionEstacion":"Calle 13 Sur - Calle 16 Su","Cantidad":1843},"geometry":{"type":"Point","coordinates":[-74.09893378,4.58322682]}},{"type":"Feature","properties":{"NombreEstacion":"Guatoque - Veraguas","NumeroEstacion":7201,"Localidad1":"Los Mártires","Localidad2":"-","UbicacionEstacion":"Carrera 27","Cantidad":1641},"geometry":{"type":"Point","coordinates":[-74.09485855,4.60413498]}},{"type":"Feature","properties":{"NombreEstacion":"Tygua - San José","NumeroEstacion":7200,"Localidad1":"Los Mártires","Localidad2":"-","UbicacionEstacion":"Carrera 18","Cantidad":625},"geometry":{"type":"Point","coordinates":[-74.08872537,4.59977591]}},{"type":"Feature","properties":{"NombreEstacion":"Rionegro","NumeroEstacion":3013,"Localidad1":"Barrios Unidos","Localidad2":"-","UbicacionEstacion":"Av Suba Cl 87","Cantidad":1776},"geometry":{"type":"Point","coordinates":[-74.06508621,4.67978148]}},{"type":"Feature","properties":{"NombreEstacion":"Molinos","NumeroEstacion":9001,"Localidad1":"Tunjuelito","Localidad2":"Rafael Uribe Uribe","UbicacionEstacion":"Carrera 9A","Cantidad":1727},"geometry":{"type":"Point","coordinates":[-74.12173166,4.55683171]}},{"type":"Feature","properties":{"NombreEstacion":"AV. Américas - AV. Boyacá","NumeroEstacion":5102,"Localidad1":"Kennedy","Localidad2":"-","UbicacionEstacion":"Av. Americas -Carrera 71","Cantidad":119},"geometry":{"type":"Point","coordinates":[-74.13458973,4.6302734]}},{"type":"Feature","properties":{"NombreEstacion":"Terreros - Hospital C.V","NumeroEstacion":7504,"Localidad1":"Soacha","Localidad2":"-","UbicacionEstacion":"soacha","Cantidad":1717},"geometry":{"type":"Point","coordinates":[-74.19752499,4.59003235]}},{"type":"Feature","properties":{"NombreEstacion":"Leon XIII","NumeroEstacion":7505,"Localidad1":"Soacha","Localidad2":"-","UbicacionEstacion":"soacha","Cantidad":424},"geometry":{"type":"Point","coordinates":[-74.19337284,4.59201635]}},{"type":"Feature","properties":{"NombreEstacion":"Ricaurte - CL 13","NumeroEstacion":12003,"Localidad1":"Los Mártires","Localidad2":"-","UbicacionEstacion":"calle 13 - carrera 28","Cantidad":1171},"geometry":{"type":"Point","coordinates":[-74.09009135,4.61283803]}},{"type":"Feature","properties":{"NombreEstacion":"San Bernardo","NumeroEstacion":10010,"Localidad1":"Santa Fé","Localidad2":"-","UbicacionEstacion":"Kra 10- Cl1b  sur","Cantidad":2357},"geometry":{"type":"Point","coordinates":[-74.08474329,4.58944781]}},{"type":"Feature","properties":{"NombreEstacion":"Portal El Dorado","NumeroEstacion":6000,"Localidad1":"Fontibón","Localidad2":"Engativá","UbicacionEstacion":"carrera 87","Cantidad":1175},"geometry":{"type":"Point","coordinates":[-74.12098887,4.68113815]}},{"type":"Feature","properties":{"NombreEstacion":"Parque","NumeroEstacion":8001,"Localidad1":"Tunjuelito\t","Localidad2":"-","UbicacionEstacion":"Calle 55 Sur","Cantidad":577},"geometry":{"type":"Point","coordinates":[-74.13489203,4.56841787]}},{"type":"Feature","properties":{"NombreEstacion":"Quirigua","NumeroEstacion":4001,"Localidad1":"Engativá","Localidad2":"-","UbicacionEstacion":"Carrera 94","Cantidad":1515},"geometry":{"type":"Point","coordinates":[-74.10852651,4.70653892]}},{"type":"Feature","properties":{"NombreEstacion":"Consuelo","NumeroEstacion":9002,"Localidad1":"Tunjuelito","Localidad2":"Rafael Uribe Uribe","UbicacionEstacion":"Carrera 11A - Carrera 10C","Cantidad":1453},"geometry":{"type":"Point","coordinates":[-74.12383771,4.56016875]}},{"type":"Feature","properties":{"NombreEstacion":"Sevillana","NumeroEstacion":7003,"Localidad1":"Kennedy","Localidad2":"Tunjuelito","UbicacionEstacion":"Sevillana","Cantidad":2125},"geometry":{"type":"Point","coordinates":[-74.14767232,4.59529816]}},{"type":"Feature","properties":{"NombreEstacion":"San Mateo","NumeroEstacion":7503,"Localidad1":"Soacha","Localidad2":"-","UbicacionEstacion":"soacha","Cantidad":319},"geometry":{"type":"Point","coordinates":[-74.20659531,4.58543136]}},{"type":"Feature","properties":{"NombreEstacion":"AV. Jiménez - Caracas","NumeroEstacion":9110,"Localidad1":"Los Mártires","Localidad2":"La Candelaria","UbicacionEstacion":"Calle 13 - Calle 11","Cantidad":2337},"geometry":{"type":"Point","coordinates":[-74.0807021,4.6022619]}},{"type":"Feature","properties":{"NombreEstacion":"Calle 22","NumeroEstacion":9113,"Localidad1":"Santa Fé","Localidad2":"Los Mártires","UbicacionEstacion":"Calle 24 - Calle 22","Cantidad":2244},"geometry":{"type":"Point","coordinates":[-74.07441784,4.61212995]}},{"type":"Feature","properties":{"NombreEstacion":"Ciudad Universitaria","NumeroEstacion":6107,"Localidad1":"Teusaquillo","Localidad2":"-","UbicacionEstacion":"carrera 34","Cantidad":1182},"geometry":{"type":"Point","coordinates":[-74.08297304,4.63020415]}},{"type":"Feature","properties":{"NombreEstacion":"San Fason Carrera 22","NumeroEstacion":12004,"Localidad1":"Los Mártires","Localidad2":"-","UbicacionEstacion":"Av. Americas -Carrera 22","Cantidad":1743},"geometry":{"type":"Point","coordinates":[-74.08671226,4.60981799]}},{"type":"Feature","properties":{"NombreEstacion":"AV. 39","NumeroEstacion":9116,"Localidad1":"Santa Fé","Localidad2":"Teusaquillo","UbicacionEstacion":"Avenida 39 - Avenida Calle","Cantidad":2463},"geometry":{"type":"Point","coordinates":[-74.06823856,4.62859306]}},{"type":"Feature","properties":{"NombreEstacion":"Movistar Arena","NumeroEstacion":7105,"Localidad1":"Teusaquillo","Localidad2":"-","UbicacionEstacion":"Kr 30 Cl 57","Cantidad":1712},"geometry":{"type":"Point","coordinates":[-74.07828379,4.65033029]}},{"type":"Feature","properties":{"NombreEstacion":"Suba - Calle 100","NumeroEstacion":3011,"Localidad1":"Suba","Localidad2":"-","UbicacionEstacion":"Av Suba Cl 100","Cantidad":1482},"geometry":{"type":"Point","coordinates":[-74.06540117,4.69003157]}},{"type":"Feature","properties":{"NombreEstacion":"Tercer Milenio","NumeroEstacion":9109,"Localidad1":"Santa Fé","Localidad2":"Los Mártires","UbicacionEstacion":"Calle 8 - Calle 6","Cantidad":1638},"geometry":{"type":"Point","coordinates":[-74.08383022,4.59799788]}},{"type":"Feature","properties":{"NombreEstacion":"Pradera","NumeroEstacion":5105,"Localidad1":"Puente Aranda","Localidad2":"-","UbicacionEstacion":"Av. Americas -Carrera 64","Cantidad":260},"geometry":{"type":"Point","coordinates":[-74.11905023,4.62859531]}},{"type":"Feature","properties":{"NombreEstacion":"Quiroga","NumeroEstacion":9101,"Localidad1":"Rafael Uribe Uribe","Localidad2":"-","UbicacionEstacion":"Calle 31 Sur - Calle 32 Su","Cantidad":1386},"geometry":{"type":"Point","coordinates":[-74.11424032,4.57676184]}},{"type":"Feature","properties":{"NombreEstacion":"De La Sabana","NumeroEstacion":14001,"Localidad1":"Los Mártires","Localidad2":"-","UbicacionEstacion":"Calle 13 - Carrera 16","Cantidad":1252},"geometry":{"type":"Point","coordinates":[-74.08251114,4.60602494]}},{"type":"Feature","properties":{"NombreEstacion":"AV. Rojas","NumeroEstacion":6100,"Localidad1":"Engativá","Localidad2":"Fontibón","UbicacionEstacion":"Calle 26-Carrera 69 d","Cantidad":1384},"geometry":{"type":"Point","coordinates":[-74.10910097,4.66245401]}},{"type":"Feature","properties":{"NombreEstacion":"AV. Boyacá","NumeroEstacion":4102,"Localidad1":"Suba","Localidad2":"-","UbicacionEstacion":"Transversal 69 B","Cantidad":1269},"geometry":{"type":"Point","coordinates":[-74.08698686,4.69390171]}},{"type":"Feature","properties":{"NombreEstacion":"Ferias","NumeroEstacion":4103,"Localidad1":"Engativá","Localidad2":"-","UbicacionEstacion":"Transversal  67 Bis","Cantidad":1853},"geometry":{"type":"Point","coordinates":[-74.08402878,4.69014066]}},{"type":"Feature","properties":{"NombreEstacion":"Gratamira","NumeroEstacion":3004,"Localidad1":"Suba","Localidad2":"-","UbicacionEstacion":"Av Suba Cl 135","Cantidad":1709},"geometry":{"type":"Point","coordinates":[-74.07459429,4.72773094]}},{"type":"Feature","properties":{"NombreEstacion":"Niza - Calle 127","NumeroEstacion":3006,"Localidad1":"Suba","Localidad2":"-","UbicacionEstacion":"Av Suba Cl 127","Cantidad":369},"geometry":{"type":"Point","coordinates":[-74.07222629,4.71168779]}},{"type":"Feature","properties":{"NombreEstacion":"Socorro","NumeroEstacion":9003,"Localidad1":"Tunjuelito","Localidad2":"Rafael Uribe Uribe","UbicacionEstacion":"Carrera 16B - Carrera 14A","Cantidad":480},"geometry":{"type":"Point","coordinates":[-74.12553274,4.56458879]}},{"type":"Feature","properties":{"NombreEstacion":"AV. 1 Mayo","NumeroEstacion":10002,"Localidad1":"San Cristóbal","Localidad2":"Antonio Nariño","UbicacionEstacion":"AV. 1? Mayo con Cra 7","Cantidad":1463},"geometry":{"type":"Point","coordinates":[-74.09456268,4.57572274]}},{"type":"Feature","properties":{"NombreEstacion":"Bicentenario","NumeroEstacion":10005,"Localidad1":"Santa Fé","Localidad2":"La Candelaria","UbicacionEstacion":"Kra 10 -Cl5","Cantidad":578},"geometry":{"type":"Point","coordinates":[-74.08110114,4.59504984]}},{"type":"Feature","properties":{"NombreEstacion":"Américas - Carrera 53A","NumeroEstacion":5107,"Localidad1":"Puente Aranda","Localidad2":"-","UbicacionEstacion":"Amï¿½ricas - KR 53A","Cantidad":2346},"geometry":{"type":"Point","coordinates":[-74.11111797,4.62776126]}},{"type":"Feature","properties":{"NombreEstacion":"Country Sur","NumeroEstacion":10001,"Localidad1":"San Cristóbal","Localidad2":"Rafael Uribe Uribe","UbicacionEstacion":"Kra 10- Cl28 sur","Cantidad":358},"geometry":{"type":"Point","coordinates":[-74.09850883,4.57139572]}},{"type":"Feature","properties":{"NombreEstacion":"NQS - Calle 38A S","NumeroEstacion":7007,"Localidad1":"Antonio Nariño","Localidad2":"Puente Aranda","UbicacionEstacion":"AutoSur - Kr 39A","Cantidad":876},"geometry":{"type":"Point","coordinates":[-74.12294152,4.59398803]}},{"type":"Feature","properties":{"NombreEstacion":"Biblioteca","NumeroEstacion":8002,"Localidad1":"Tunjuelito","Localidad2":"-","UbicacionEstacion":"Calle 48A Sur","Cantidad":1652},"geometry":{"type":"Point","coordinates":[-74.13025087,4.57032486]}},{"type":"Feature","properties":{"NombreEstacion":"21 Ángeles","NumeroEstacion":3003,"Localidad1":"Suba","Localidad2":"-","UbicacionEstacion":"Av Suba Cl 136","Cantidad":1106},"geometry":{"type":"Point","coordinates":[-74.08032644,4.73513203]}},{"type":"Feature","properties":{"NombreEstacion":"Centro Memoria","NumeroEstacion":6109,"Localidad1":"Los Mártires","Localidad2":"Teusaquillo","UbicacionEstacion":"Carrera 20","Cantidad":1867},"geometry":{"type":"Point","coordinates":[-74.07649587,4.62042703]}},{"type":"Feature","properties":{"NombreEstacion":"Marsella","NumeroEstacion":5103,"Localidad1":"Kennedy","Localidad2":"-","UbicacionEstacion":"Av. Americas -Carrera 69C","Cantidad":1419},"geometry":{"type":"Point","coordinates":[-74.12858953,4.62962336]}},{"type":"Feature","properties":{"NombreEstacion":"Carrera 43","NumeroEstacion":12001,"Localidad1":"Puente Aranda","Localidad2":"-","UbicacionEstacion":"Av. Americas -Carrera 43","Cantidad":1063},"geometry":{"type":"Point","coordinates":[-74.10141668,4.62280517]}},{"type":"Feature","properties":{"NombreEstacion":"Las Nieves","NumeroEstacion":10007,"Localidad1":"Santa Fé","Localidad2":"-","UbicacionEstacion":"Kra 10- Cl18","Cantidad":264},"geometry":{"type":"Point","coordinates":[-74.07390385,4.6066789]}},{"type":"Feature","properties":{"NombreEstacion":"San Diego","NumeroEstacion":10008,"Localidad1":"Santa Fé","Localidad2":"-","UbicacionEstacion":"Kra 10- Cl23","Cantidad":896},"geometry":{"type":"Point","coordinates":[-74.07136878,4.61113974]}},{"type":"Feature","properties":{"NombreEstacion":"Transversal 86","NumeroEstacion":5005,"Localidad1":"Kennedy","Localidad2":"-","UbicacionEstacion":"Av. Americas -tv. 86","Cantidad":756},"geometry":{"type":"Point","coordinates":[-74.15326284,4.63480527]}},{"type":"Feature","properties":{"NombreEstacion":"Concejo de Bogotá","NumeroEstacion":6108,"Localidad1":"Teusaquillo","Localidad2":"-","UbicacionEstacion":"Carrera38","Cantidad":513},"geometry":{"type":"Point","coordinates":[-74.07960195,4.62508709]}},{"type":"Feature","properties":{"NombreEstacion":"Universidades","NumeroEstacion":6111,"Localidad1":"Santa Fé","Localidad2":"-","UbicacionEstacion":"carrera 4","Cantidad":356},"geometry":{"type":"Point","coordinates":[-74.06686963,4.60533686]}},{"type":"Feature","properties":{"NombreEstacion":"Calle 127","NumeroEstacion":2202,"Localidad1":"Usaquén","Localidad2":"Suba","UbicacionEstacion":"Calle 127","Cantidad":2289},"geometry":{"type":"Point","coordinates":[-74.05401073,4.70524465]}},{"type":"Feature","properties":{"NombreEstacion":"La Despensa","NumeroEstacion":7506,"Localidad1":"Soacha","Localidad2":"-","UbicacionEstacion":"soacha","Cantidad":1319},"geometry":{"type":"Point","coordinates":[-74.18746863,4.59495435]}},{"type":"Feature","properties":{"NombreEstacion":"Suba - Calle 95","NumeroEstacion":3012,"Localidad1":"Barrios Unidos","Localidad2":"-","UbicacionEstacion":"Av Suba Cl 97","Cantidad":522},"geometry":{"type":"Point","coordinates":[-74.06303712,4.68428551]}},{"type":"Feature","properties":{"NombreEstacion":"Hospital","NumeroEstacion":9108,"Localidad1":"Santa Fé","Localidad2":"Los Mártires","UbicacionEstacion":"Calle 4 - Calle 2","Cantidad":561},"geometry":{"type":"Point","coordinates":[-74.08629931,4.59486786]}},{"type":"Feature","properties":{"NombreEstacion":"Mandalay","NumeroEstacion":5101,"Localidad1":"Kennedy","Localidad2":"-","UbicacionEstacion":"av. Amï¿½ricas Carrera 73","Cantidad":164},"geometry":{"type":"Point","coordinates":[-74.1400219,4.63071043]}},{"type":"Feature","properties":{"NombreEstacion":"Museo Nacional","NumeroEstacion":10009,"Localidad1":"Santa Fé","Localidad2":"-","UbicacionEstacion":"Kra 7- Cl32","Cantidad":2372},"geometry":{"type":"Point","coordinates":[-74.0696221,4.61410007]}},{"type":"Feature","properties":{"NombreEstacion":"Portal 20 de Julio","NumeroEstacion":10000,"Localidad1":"San Cristóbal","Localidad2":"-","UbicacionEstacion":"Kra 5 a Cl 33 Sur","Cantidad":2065},"geometry":{"type":"Point","coordinates":[-74.09819184,4.56535867]}},{"type":"Feature","properties":{"NombreEstacion":"Puente Aranda","NumeroEstacion":12000,"Localidad1":"Puente Aranda","Localidad2":"-","UbicacionEstacion":"calle 13 carrera 47","Cantidad":582},"geometry":{"type":"Point","coordinates":[-74.10461377,4.62556721]}},{"type":"Feature","properties":{"NombreEstacion":"San Victorino","NumeroEstacion":10006,"Localidad1":"Santa Fé","Localidad2":"La Candelaria","UbicacionEstacion":"Kra 10- Cl12","Cantidad":1046},"geometry":{"type":"Point","coordinates":[-74.07685397,4.60177387]}},{"type":"Feature","properties":{"NombreEstacion":"Ciudad Jardín","NumeroEstacion":10003,"Localidad1":"Antonio Nariño","Localidad2":"San Cristóbal","UbicacionEstacion":"Kra 10- Cl12 sur","Cantidad":588},"geometry":{"type":"Point","coordinates":[-74.09042752,4.58121677]}},{"type":"Feature","properties":{"NombreEstacion":"Policarpa","NumeroEstacion":10004,"Localidad1":"Antonio Nariño","Localidad2":"San Cristóbal","UbicacionEstacion":"Kra 10- Cl3 sur","Cantidad":1832},"geometry":{"type":"Point","coordinates":[-74.08655036,4.58653979]}},{"type":"Feature","properties":{"NombreEstacion":"Bosa","NumeroEstacion":7010,"Localidad1":"Bosa ","Localidad2":"Ciudad Bolivar","UbicacionEstacion":"soacha","Cantidad":2416},"geometry":{"type":"Point","coordinates":[-74.17918435,4.59693732]}},{"type":"Feature","properties":{"NombreEstacion":"Pepe Sierra","NumeroEstacion":2204,"Localidad1":"Usaquén","Localidad2":"Suba","UbicacionEstacion":"Calle 116","Cantidad":1535},"geometry":{"type":"Point","coordinates":[-74.05531281,4.69785859]}},{"type":"Feature","properties":{"NombreEstacion":"CAD","NumeroEstacion":7109,"Localidad1":"Los Mártires","Localidad2":"Puente Aranda","UbicacionEstacion":"Kr 30 Cl 26","Cantidad":1108},"geometry":{"type":"Point","coordinates":[-74.08372009,4.6238871]}},{"type":"Feature","properties":{"NombreEstacion":"Virrey","NumeroEstacion":2302,"Localidad1":"Chapinero","Localidad2":"Barrios Unidos","UbicacionEstacion":"Calle 90","Cantidad":1648},"geometry":{"type":"Point","coordinates":[-74.05858701,4.67739343]}},{"type":"Feature","properties":{"NombreEstacion":"Calle 72","NumeroEstacion":9122,"Localidad1":"Chapinero","Localidad2":"Barrios Unidos","UbicacionEstacion":"Calle 72 - Calle 70A","Cantidad":391},"geometry":{"type":"Point","coordinates":[-74.06190821,4.65931729]}},{"type":"Feature","properties":{"NombreEstacion":"Terminal","NumeroEstacion":2502,"Localidad1":"Usaquén","Localidad2":"Suba","UbicacionEstacion":"Calle 190","Cantidad":1358},"geometry":{"type":"Point","coordinates":[-74.04340206,4.76963114]}},{"type":"Feature","properties":{"NombreEstacion":"Olaya","NumeroEstacion":9103,"Localidad1":"Rafael Uribe Uribe","Localidad2":"-","UbicacionEstacion":"Calle 24 Sur - Calle 27 Su","Cantidad":2129},"geometry":{"type":"Point","coordinates":[-74.10729408,4.57893083]}},{"type":"Feature","properties":{"NombreEstacion":"Calle 76","NumeroEstacion":9123,"Localidad1":"Chapinero","Localidad2":"Barrios Unidos","UbicacionEstacion":"Calle 76 - Calle 74","Cantidad":1419},"geometry":{"type":"Point","coordinates":[-74.06107216,4.66406733]}},{"type":"Feature","properties":{"NombreEstacion":"Calle 106","NumeroEstacion":2205,"Localidad1":"Usaquén","Localidad2":"Suba","UbicacionEstacion":"Calle 106","Cantidad":2234},"geometry":{"type":"Point","coordinates":[-74.05614686,4.69280155]}},{"type":"Feature","properties":{"NombreEstacion":"AV. El Dorado","NumeroEstacion":7108,"Localidad1":"Teusaquillo","Localidad2":"-","UbicacionEstacion":"Kr 30 Av 28","Cantidad":1727},"geometry":{"type":"Point","coordinates":[-74.07976893,4.63026213]}},{"type":"Feature","properties":{"NombreEstacion":"Mazurén","NumeroEstacion":2103,"Localidad1":"Usaquén","Localidad2":"Suba","UbicacionEstacion":"Calle 152","Cantidad":1206},"geometry":{"type":"Point","coordinates":[-74.04897041,4.73547088]}},{"type":"Feature","properties":{"NombreEstacion":"Calle 85","NumeroEstacion":2303,"Localidad1":"Chapinero","Localidad2":"Barrios Unidos","UbicacionEstacion":"Calle 85","Cantidad":1186},"geometry":{"type":"Point","coordinates":[-74.05941206,4.67241739]}},{"type":"Feature","properties":{"NombreEstacion":"U. Nacional","NumeroEstacion":7107,"Localidad1":"Teusaquillo","Localidad2":"-","UbicacionEstacion":"Kr 30 Cl 45","Cantidad":485},"geometry":{"type":"Point","coordinates":[-74.07937689,4.63616818]}},{"type":"Feature","properties":{"NombreEstacion":"Calle 142","NumeroEstacion":2105,"Localidad1":"Usaquén","Localidad2":"Suba","UbicacionEstacion":"Calle 142","Cantidad":1185},"geometry":{"type":"Point","coordinates":[-74.05050551,4.72662081]}},{"type":"Feature","properties":{"NombreEstacion":"NQS - Calle 75","NumeroEstacion":7102,"Localidad1":"Barrios Unidos","Localidad2":"-","UbicacionEstacion":"Kr 30 - Cl 75A","Cantidad":1574},"geometry":{"type":"Point","coordinates":[-74.07122446,4.67043543]}},{"type":"Feature","properties":{"NombreEstacion":"Prado","NumeroEstacion":2201,"Localidad1":"Usaquén","Localidad2":"Suba","UbicacionEstacion":"Calle 128 B","Cantidad":963},"geometry":{"type":"Point","coordinates":[-74.05258664,4.71393371]}},{"type":"Feature","properties":{"NombreEstacion":"Banderas","NumeroEstacion":5100,"Localidad1":"Kennedy","Localidad2":"-","UbicacionEstacion":"Av. Americas -Carrera 78","Cantidad":2442},"geometry":{"type":"Point","coordinates":[-74.14723714,4.63139347]}},{"type":"Feature","properties":{"NombreEstacion":"Minuto de Dios","NumeroEstacion":4101,"Localidad1":"Engativá","Localidad2":"-","UbicacionEstacion":"Carrera 73 A","Cantidad":2245},"geometry":{"type":"Point","coordinates":[-74.091492,4.69669576]}},{"type":"Feature","properties":{"NombreEstacion":"La Campiña","NumeroEstacion":3001,"Localidad1":"Suba","Localidad2":"-","UbicacionEstacion":"Av Suba Kr 98A","Cantidad":343},"geometry":{"type":"Point","coordinates":[-74.09119976,4.74271815]}},{"type":"Feature","properties":{"NombreEstacion":"Calle 45","NumeroEstacion":9117,"Localidad1":"Chapinero","Localidad2":"Teusaquillo","UbicacionEstacion":"Calle 45 - Calle 42A","Cantidad":1413},"geometry":{"type":"Point","coordinates":[-74.06738051,4.6333741]}},{"type":"Feature","properties":{"NombreEstacion":"General Santander","NumeroEstacion":7006,"Localidad1":"Puente Aranda","Localidad2":"Antonio Nariño","UbicacionEstacion":"AutoSur-Kr43","Cantidad":326},"geometry":{"type":"Point","coordinates":[-74.1282667,4.59360505]}},{"type":"Feature","properties":{"NombreEstacion":"Carrera 90","NumeroEstacion":4002,"Localidad1":"Engativá","Localidad2":"-","UbicacionEstacion":"Carrera 90","Cantidad":1302},"geometry":{"type":"Point","coordinates":[-74.10458038,4.70473089]}},{"type":"Feature","properties":{"NombreEstacion":"Portal del Norte","NumeroEstacion":2000,"Localidad1":"Usaquén","Localidad2":"Suba","UbicacionEstacion":"Calle 173","Cantidad":1266},"geometry":{"type":"Point","coordinates":[-74.04596522,4.75447203]}},{"type":"Feature","properties":{"NombreEstacion":"Carrera 47","NumeroEstacion":4106,"Localidad1":"Barrios Unidos","Localidad2":"-","UbicacionEstacion":"Carrera 46","Cantidad":2021},"geometry":{"type":"Point","coordinates":[-74.0737265,4.67831351]}},{"type":"Feature","properties":{"NombreEstacion":"Santa Isabel","NumeroEstacion":7113,"Localidad1":"Los Mártires","Localidad2":"Puente Aranda","UbicacionEstacion":"Kr 30 Av 3","Cantidad":2371},"geometry":{"type":"Point","coordinates":[-74.10336685,4.600994]}},{"type":"Feature","properties":{"NombreEstacion":"Calle 146","NumeroEstacion":2104,"Localidad1":"Usaquén","Localidad2":"Suba","UbicacionEstacion":"Calle 146","Cantidad":1408},"geometry":{"type":"Point","coordinates":[-74.04987147,4.73064684]}},{"type":"Feature","properties":{"NombreEstacion":"Paloquemao","NumeroEstacion":7110,"Localidad1":"Los Mártires","Localidad2":"Puente Aranda","UbicacionEstacion":"Kr 30 Cl 19","Cantidad":742},"geometry":{"type":"Point","coordinates":[-74.08858928,4.61799507]}},{"type":"Feature","properties":{"NombreEstacion":"Portal del Tunal","NumeroEstacion":8000,"Localidad1":"Tunjuelito","Localidad2":"Ciudad Bolivar ","UbicacionEstacion":"Av. Boyaca","Cantidad":1861},"geometry":{"type":"Point","coordinates":[-74.13981319,4.57035491]}},{"type":"Feature","properties":{"NombreEstacion":"Granja - Carrera 77","NumeroEstacion":4100,"Localidad1":"Engativá","Localidad2":"-","UbicacionEstacion":"Carrera 77 Bis","Cantidad":680},"geometry":{"type":"Point","coordinates":[-74.09483848,4.6984667]}},{"type":"Feature","properties":{"NombreEstacion":"Portal de las Américas","NumeroEstacion":5000,"Localidad1":"Kennedy","Localidad2":"-","UbicacionEstacion":"av.Cali - Calle 43 sur","Cantidad":253},"geometry":{"type":"Point","coordinates":[-74.17128277,4.6282829]}},{"type":"Feature","properties":{"NombreEstacion":"Quinta Paredes","NumeroEstacion":6105,"Localidad1":"Teusaquillo","Localidad2":"-","UbicacionEstacion":"Carrera 47","Cantidad":2356},"geometry":{"type":"Point","coordinates":[-74.09232196,4.63641847]}},{"type":"Feature","properties":{"NombreEstacion":"Calle 19","NumeroEstacion":9111,"Localidad1":"Los Mártires","Localidad2":"Santa Fe","UbicacionEstacion":"Calle 19 - Calle 17","Cantidad":1588},"geometry":{"type":"Point","coordinates":[-74.07663494,4.60809693]}},{"type":"Feature","properties":{"NombreEstacion":"Portal de Usme","NumeroEstacion":9000,"Localidad1":"Usme","Localidad2":"-","UbicacionEstacion":"Calle 65C Sur","Cantidad":2210},"geometry":{"type":"Point","coordinates":[-74.12017173,4.53079248]}},{"type":"Feature","properties":{"NombreEstacion":"Humedal Córdoba","NumeroEstacion":3007,"Localidad1":"Suba","Localidad2":"-","UbicacionEstacion":"Av Suba Cl 119","Cantidad":1169},"geometry":{"type":"Point","coordinates":[-74.07099928,4.70618274]}}]}